[
  {"station_id": "trs_001", "station_name": "Teesta at Domohani", "district_id": "jalpaiguri", "river": "Teesta", "lat": 26.7618, "lon": 88.8264, "current_level_m": 87.45, "danger_level_m": 89.50, "warning_level_m": 88.00, "normal_level_m": 82.00, "trend": "rising", "discharge_cumecs": 4200, "last_updated": "2026-07-04T12:00:00+05:30"},
  {"station_id": "trs_002", "station_name": "Teesta at Gajoldoba", "district_id": "jalpaiguri", "river": "Teesta", "lat": 26.7039, "lon": 88.6780, "current_level_m": 79.20, "danger_level_m": 81.00, "warning_level_m": 79.50, "normal_level_m": 74.00, "trend": "steady", "discharge_cumecs": 2800, "last_updated": "2026-07-04T12:00:00+05:30"},
  {"station_id": "trs_003", "station_name": "Teesta at Sevoke", "district_id": "darjeeling", "river": "Teesta", "lat": 26.8816, "lon": 88.5168, "current_level_m": 142.30, "danger_level_m": 145.00, "warning_level_m": 143.00, "normal_level_m": 138.00, "trend": "rising", "discharge_cumecs": 1200, "last_updated": "2026-07-04T12:00:00+05:30"},
  {"station_id": "trs_004", "station_name": "Torsha at Ambari", "district_id": "cooch_behar", "river": "Torsha", "lat": 26.3500, "lon": 89.4300, "current_level_m": 44.80, "danger_level_m": 46.50, "warning_level_m": 45.50, "normal_level_m": 41.00, "trend": "falling", "discharge_cumecs": 890, "last_updated": "2026-07-04T12:00:00+05:30"},
  {"station_id": "trs_005", "station_name": "Sankosh at Golokganj", "district_id": "alipurduar", "river": "Sankosh", "lat": 26.3200, "lon": 89.7500, "current_level_m": 38.60, "danger_level_m": 40.00, "warning_level_m": 39.00, "normal_level_m": 35.00, "trend": "rising", "discharge_cumecs": 750, "last_updated": "2026-07-04T12:00:00+05:30"},
  {"station_id": "trs_006", "station_name": "Mahananda at Patiram", "district_id": "malda", "river": "Mahananda", "lat": 25.3200, "lon": 88.2600, "current_level_m": 24.10, "danger_level_m": 26.50, "warning_level_m": 25.50, "normal_level_m": 21.00, "trend": "steady", "discharge_cumecs": 620, "last_updated": "2026-07-04T12:00:00+05:30"},
  {"station_id": "trs_007", "station_name": "Ganga at Farakka", "district_id": "murshidabad", "river": "Ganga", "lat": 24.8100, "lon": 87.9200, "current_level_m": 17.80, "danger_level_m": 22.40, "warning_level_m": 21.00, "normal_level_m": 14.00, "trend": "rising", "discharge_cumecs": 45000, "last_updated": "2026-07-04T12:00:00+05:30"},
  {"station_id": "trs_008", "station_name": "Bhagirathi at Berhampore", "district_id": "murshidabad", "river": "Bhagirathi", "lat": 24.1028, "lon": 88.2514, "current_level_m": 14.20, "danger_level_m": 17.50, "warning_level_m": 16.00, "normal_level_m": 11.00, "trend": "rising", "discharge_cumecs": 3200, "last_updated": "2026-07-04T12:00:00+05:30"},
  {"station_id": "trs_009", "station_name": "Mayurakshi at Tilpara", "district_id": "birbhum", "river": "Mayurakshi", "lat": 23.9100, "lon": 87.5200, "current_level_m": 34.80, "danger_level_m": 38.00, "warning_level_m": 36.50, "normal_level_m": 30.00, "trend": "steady", "discharge_cumecs": 480, "last_updated": "2026-07-04T12:00:00+05:30"},
  {"station_id": "trs_010", "station_name": "Damodar at Rhondia", "district_id": "purba_bardhaman", "river": "Damodar", "lat": 23.2300, "lon": 87.9500, "current_level_m": 22.60, "danger_level_m": 26.00, "warning_level_m": 24.00, "normal_level_m": 18.00, "trend": "rising", "discharge_cumecs": 6500, "last_updated": "2026-07-04T12:00:00+05:30"},
  {"station_id": "trs_011", "station_name": "Damodar at Tribeni", "district_id": "hooghly", "river": "Damodar", "lat": 22.9800, "lon": 88.4000, "current_level_m": 12.40, "danger_level_m": 15.50, "warning_level_m": 13.80, "normal_level_m": 9.00, "trend": "rising", "discharge_cumecs": 7200, "last_updated": "2026-07-04T12:00:00+05:30"},
  {"station_id": "trs_012", "station_name": "Hooghly at Palta", "district_id": "north_24_parganas", "river": "Hooghly", "lat": 22.6900, "lon": 88.3900, "current_level_m": 4.20, "danger_level_m": 5.80, "warning_level_m": 5.00, "normal_level_m": 2.50, "trend": "steady", "discharge_cumecs": 12000, "last_updated": "2026-07-04T12:00:00+05:30"},
  {"station_id": "trs_013", "station_name": "Rupnarayan at Kolaghat", "district_id": "purba_medinipur", "river": "Rupnarayan", "lat": 22.1700, "lon": 87.9500, "current_level_m": 5.80, "danger_level_m": 8.20, "warning_level_m": 7.00, "normal_level_m": 3.50, "trend": "steady", "discharge_cumecs": 980, "last_updated": "2026-07-04T12:00:00+05:30"},
  {"station_id": "trs_014", "station_name": "Kangsabati at Mukutmanipur", "district_id": "bankura", "river": "Kangsabati", "lat": 23.0500, "lon": 86.8800, "current_level_m": 95.20, "danger_level_m": 98.50, "warning_level_m": 97.00, "normal_level_m": 91.00, "trend": "steady", "discharge_cumecs": 320, "last_updated": "2026-07-04T12:00:00+05:30"},
  {"station_id": "trs_015", "station_name": "Ichamati at Basirhat", "district_id": "north_24_parganas", "river": "Ichamati", "lat": 22.6600, "lon": 88.8800, "current_level_m": 3.60, "danger_level_m": 5.00, "warning_level_m": 4.20, "normal_level_m": 1.80, "trend": "rising", "discharge_cumecs": 420, "last_updated": "2026-07-04T12:00:00+05:30"}
]
